[{"20161015":[{"entries":9803,"exits":23508}],"20161022":[{"entries":9509,"exits":24013}],"20161029":[{"entries":9998,"exits":24938}],"20161105":[{"entries":10498,"exits":25105}],"20161112":[{"entries":17030,"exits":31457}],"20161119":[{"entries":13456,"exits":30318}],"station_name":"서울","line_num":"1","lat":"37.554648","lon":"126.972559","station_cd":"0150"},{"20161015":[{"entries":14907,"exits":13822}],"20161022":[{"entries":16572,"exits":15279}],"20161029":[{"entries":22290,"exits":21486}],"20161105":[{"entries":28545,"exits":23978}],"20161112":[{"entries":60985,"exits":85201}],"20161119":[{"entries":39094,"exits":39886}],"station_name":"시청","line_num":"1","lat":"37.564718","lon":"126.977108","station_cd":"0151"},{"20161015":[{"entries":38262,"exits":35720}],"20161022":[{"entries":38789,"exits":35563}],"20161029":[{"entries":48258,"exits":42725}],"20161105":[{"entries":58238,"exits":48781}],"20161112":[{"entries":115790,"exits":102040}],"20161119":[{"entries":75792,"exits":64924}],"station_name":"종각","line_num":"1","lat":"37.570161","lon":"126.982923","station_cd":"0152"},{"20161015":[{"entries":13461,"exits":13974}],"20161022":[{"entries":14023,"exits":14468}],"20161029":[{"entries":14487,"exits":14445}],"20161105":[{"entries":15132,"exits":15297}],"20161112":[{"entries":26914,"exits":35723}],"20161119":[{"entries":17781,"exits":19556}],"station_name":"종로3가","line_num":"1","lat":"37.571607","lon":"126.991806","station_cd":"0153"},{"20161015":[{"entries":25924,"exits":26393}],"20161022":[{"entries":26676,"exits":27169}],"20161029":[{"entries":28163,"exits":27746}],"20161105":[{"entries":31235,"exits":29578}],"20161112":[{"entries":38192,"exits":32886}],"20161119":[{"entries":31839,"exits":29903}],"station_name":"종로5가","line_num":"1","lat":"37.570926","lon":"127.001849","station_cd":"0154"},{"20161015":[{"entries":14907,"exits":13822}],"20161022":[{"entries":16572,"exits":15279}],"20161029":[{"entries":22290,"exits":21486}],"20161105":[{"entries":28545,"exits":23978}],"20161112":[{"entries":60985,"exits":85201}],"20161119":[{"entries":39094,"exits":39886}],"station_name":"시청","line_num":"2","lat":"37.564718","lon":"126.977108","station_cd":"0201"},{"20161015":[{"entries":42083,"exits":41087}],"20161022":[{"entries":42052,"exits":40317}],"20161029":[{"entries":47067,"exits":45720}],"20161105":[{"entries":52753,"exits":45953}],"20161112":[{"entries":99994,"exits":90181}],"20161119":[{"entries":59177,"exits":51704}],"station_name":"을지로입구","line_num":"2","lat":"37.566014","lon":"126.982618","station_cd":"0202"},{"20161015":[{"entries":5357,"exits":6221}],"20161022":[{"entries":5310,"exits":6087}],"20161029":[{"entries":5470,"exits":6792}],"20161105":[{"entries":6904,"exits":7629}],"20161112":[{"entries":11302,"exits":18518}],"20161119":[{"entries":7027,"exits":8699}],"station_name":"을지로3가","line_num":"2","lat":"37.566295","lon":"126.991910","station_cd":"0203"},{"20161015":[{"entries":3747,"exits":4489}],"20161022":[{"entries":4051,"exits":4702}],"20161029":[{"entries":3823,"exits":4489}],"20161105":[{"entries":4601,"exits":5028}],"20161112":[{"entries":6118,"exits":6178}],"20161119":[{"entries":4764,"exits":5290}],"station_name":"을지로4가","line_num":"2","lat":"37.566941","lon":"126.998079","station_cd":"0204"},{"20161015":[{"entries":2537,"exits":2401}],"20161022":[{"entries":2565,"exits":2362}],"20161029":[{"entries":3002,"exits":2686}],"20161105":[{"entries":3400,"exits":2719}],"20161112":[{"entries":11360,"exits":4154}],"20161119":[{"entries":4204,"exits":3181}],"station_name":"충정로","line_num":"2","lat":"37.559973","lon":"126.963672","station_cd":"0243"},{"20161015":[{"entries":7698,"exits":8424}],"20161022":[{"entries":8074,"exits":9134}],"20161029":[{"entries":8945,"exits":9641}],"20161105":[{"entries":9075,"exits":9431}],"20161112":[{"entries":16688,"exits":11935}],"20161119":[{"entries":10638,"exits":10042}],"station_name":"독립문","line_num":"3","lat":"37.574571","lon":"126.957748","station_cd":"0316"},{"20161015":[{"entries":26663,"exits":29989}],"20161022":[{"entries":28619,"exits":32288}],"20161029":[{"entries":29575,"exits":31444}],"20161105":[{"entries":34551,"exits":36785}],"20161112":[{"entries":74551,"exits":65458}],"20161119":[{"entries":55806,"exits":45127}],"station_name":"경복궁","line_num":"3","lat":"37.575762","lon":"126.973530","station_cd":"0317"},{"20161015":[{"entries":26903,"exits":30869}],"20161022":[{"entries":29424,"exits":34110}],"20161029":[{"entries":31383,"exits":33816}],"20161105":[{"entries":33096,"exits":34043}],"20161112":[{"entries":55533,"exits":45910}],"20161119":[{"entries":40848,"exits":36432}],"station_name":"안국","line_num":"3","lat":"37.576477","lon":"126.985443","station_cd":"0318"},{"20161015":[{"entries":13461,"exits":13974}],"20161022":[{"entries":14023,"exits":14468}],"20161029":[{"entries":14487,"exits":14445}],"20161105":[{"entries":15132,"exits":15297}],"20161112":[{"entries":26914,"exits":35723}],"20161119":[{"entries":17781,"exits":19556}],"station_name":"종로3가","line_num":"3","lat":"37.571607","lon":"126.991806","station_cd":"0319"},{"20161015":[{"entries":5357,"exits":6221}],"20161022":[{"entries":5310,"exits":6087}],"20161029":[{"entries":5470,"exits":6792}],"20161105":[{"entries":6904,"exits":7629}],"20161112":[{"entries":11302,"exits":18518}],"20161119":[{"entries":7027,"exits":8699}],"station_name":"을지로3가","line_num":"3","lat":"37.566295","lon":"126.991910","station_cd":"0320"},{"20161015":[{"entries":43505,"exits":49725}],"20161022":[{"entries":45888,"exits":52193}],"20161029":[{"entries":49157,"exits":54973}],"20161105":[{"entries":50403,"exits":54872}],"20161112":[{"entries":62644,"exits":62063}],"20161119":[{"entries":51558,"exits":57738}],"station_name":"명동","line_num":"4","lat":"37.560989","lon":"126.986325","station_cd":"0424"},{"20161015":[{"entries":30371,"exits":31771}],"20161022":[{"entries":30798,"exits":32116}],"20161029":[{"entries":31257,"exits":32284}],"20161105":[{"entries":32939,"exits":32855}],"20161112":[{"entries":44338,"exits":45337}],"20161119":[{"entries":33412,"exits":34232}],"station_name":"회현","line_num":"4","lat":"37.558514","lon":"126.978246","station_cd":"0425"},{"20161015":[{"entries":9803,"exits":23508}],"20161022":[{"entries":9509,"exits":24013}],"20161029":[{"entries":9998,"exits":24938}],"20161105":[{"entries":10498,"exits":25105}],"20161112":[{"entries":17030,"exits":31457}],"20161119":[{"entries":13456,"exits":30318}],"station_name":"서울","line_num":"4","lat":"37.554648","lon":"126.972559","station_cd":"0426"},{"20161015":[{"entries":2537,"exits":2401}],"20161022":[{"entries":2565,"exits":2362}],"20161029":[{"entries":3002,"exits":2686}],"20161105":[{"entries":3400,"exits":2719}],"20161112":[{"entries":11360,"exits":4154}],"20161119":[{"entries":4204,"exits":3181}],"station_name":"충정로","line_num":"5","lat":"37.559973","lon":"126.963672","station_cd":"2532"},{"20161015":[{"entries":11407,"exits":11385}],"20161022":[{"entries":11121,"exits":11020}],"20161029":[{"entries":11143,"exits":10259}],"20161105":[{"entries":15370,"exits":12555}],"20161112":[{"entries":43007,"exits":31744}],"20161119":[{"entries":22011,"exits":17738}],"station_name":"서대문","line_num":"5","lat":"37.565773","lon":"126.966641","station_cd":"2533"},{"20161015":[{"entries":28827,"exits":30071}],"20161022":[{"entries":29294,"exits":29857}],"20161029":[{"entries":52676,"exits":44257}],"20161105":[{"entries":63868,"exits":70579}],"20161112":[{"entries":103326,"exits":111271}],"20161119":[{"entries":86311,"exits":99305}],"station_name":"광화문","line_num":"5","lat":"37.571026","lon":"126.976669","station_cd":"2534"},{"20161015":[{"entries":13461,"exits":13974}],"20161022":[{"entries":14023,"exits":14468}],"20161029":[{"entries":14487,"exits":14445}],"20161105":[{"entries":15132,"exits":15297}],"20161112":[{"entries":26914,"exits":35723}],"20161119":[{"entries":17781,"exits":19556}],"station_name":"종로3가","line_num":"5","lat":"37.571607","lon":"126.991806","station_cd":"2535"},{"20161015":[{"entries":3747,"exits":4489}],"20161022":[{"entries":4051,"exits":4702}],"20161029":[{"entries":3823,"exits":4489}],"20161105":[{"entries":4601,"exits":5028}],"20161112":[{"entries":6118,"exits":6178}],"20161119":[{"entries":4764,"exits":5290}],"station_name":"을지로4가","line_num":"5","lat":"37.566941","lon":"126.998079","station_cd":"2536"},{"20161015":[{"entries":489176,"exits":510254}],"20161022":[{"entries":504257,"exits":525022}],"20161029":[{"entries":571038,"exits":580856}],"20161105":[{"entries":656206,"exits":642284}],"20161112":[{"entries":1124358,"exits":1124219}],"20161119":[{"entries":795735,"exits":789095}],"station_name":"total","line_num":"","lat":"","lon":""}]
