[{"20161015":[{"entries":"93517","exits":"81023"}],"20161022":[{"entries":"93517","exits":"81023"}],"20161029":[{"entries":"93517","exits":"81023"}],"20161105":[{"entries":"93517","exits":"81023"}],"20161112":[{"entries":"93517","exits":"81023"}],"station_name":"서울","line_num":"1","lat":"37.554648","lon":"126.972559","station_cd":"0150"},{"20161015":[{"entries":"94851","exits":"128596"}],"20161022":[{"entries":"94851","exits":"128596"}],"20161029":[{"entries":"94851","exits":"128596"}],"20161105":[{"entries":"94851","exits":"128596"}],"20161112":[{"entries":"94851","exits":"128596"}],"station_name":"시청","line_num":"1","lat":"37.564718","lon":"126.977108","station_cd":"0151"},{"20161015":[{"entries":"115790","exits":"102040"}],"20161022":[{"entries":"115790","exits":"102040"}],"20161029":[{"entries":"115790","exits":"102040"}],"20161105":[{"entries":"115790","exits":"102040"}],"20161112":[{"entries":"115790","exits":"102040"}],"station_name":"종각","line_num":"1","lat":"37.570161","lon":"126.982923","station_cd":"0152"},{"20161015":[{"entries":"79970","exits":"65515"}],"20161022":[{"entries":"79970","exits":"65515"}],"20161029":[{"entries":"79970","exits":"65515"}],"20161105":[{"entries":"79970","exits":"65515"}],"20161112":[{"entries":"79970","exits":"65515"}],"station_name":"종로3가","line_num":"1","lat":"37.571607","lon":"126.991806","station_cd":"0153"},{"20161015":[{"entries":"38192","exits":"32886"}],"20161022":[{"entries":"38192","exits":"32886"}],"20161029":[{"entries":"38192","exits":"32886"}],"20161105":[{"entries":"38192","exits":"32886"}],"20161112":[{"entries":"38192","exits":"32886"}],"station_name":"종로5가","line_num":"1","lat":"37.570926","lon":"127.001849","station_cd":"0154"},{"20161015":[{"entries":"60985","exits":"85201"}],"20161022":[{"entries":"60985","exits":"85201"}],"20161029":[{"entries":"60985","exits":"85201"}],"20161105":[{"entries":"60985","exits":"85201"}],"20161112":[{"entries":"60985","exits":"85201"}],"station_name":"시청","line_num":"2","lat":"37.564718","lon":"126.977108","station_cd":"0201"},{"20161015":[{"entries":"99994","exits":"90181"}],"20161022":[{"entries":"99994","exits":"90181"}],"20161029":[{"entries":"99994","exits":"90181"}],"20161105":[{"entries":"99994","exits":"90181"}],"20161112":[{"entries":"99994","exits":"90181"}],"station_name":"을지로입구","line_num":"2","lat":"37.566014","lon":"126.982618","station_cd":"0202"},{"20161015":[{"entries":"27997","exits":"19239"}],"20161022":[{"entries":"27997","exits":"19239"}],"20161029":[{"entries":"27997","exits":"19239"}],"20161105":[{"entries":"27997","exits":"19239"}],"20161112":[{"entries":"27997","exits":"19239"}],"station_name":"을지로3가","line_num":"2","lat":"37.566295","lon":"126.991910","station_cd":"0203"},{"20161015":[{"entries":"14893","exits":"12866"}],"20161022":[{"entries":"14893","exits":"12866"}],"20161029":[{"entries":"14893","exits":"12866"}],"20161105":[{"entries":"14893","exits":"12866"}],"20161112":[{"entries":"14893","exits":"12866"}],"station_name":"을지로4가","line_num":"2","lat":"37.566941","lon":"126.998079","station_cd":"0204"},{"20161015":[{"entries":"17243","exits":"20089"}],"20161022":[{"entries":"17243","exits":"20089"}],"20161029":[{"entries":"17243","exits":"20089"}],"20161105":[{"entries":"17243","exits":"20089"}],"20161112":[{"entries":"17243","exits":"20089"}],"station_name":"충정로","line_num":"2","lat":"37.559973","lon":"126.963672","station_cd":"0243"},{"20161015":[{"entries":"16688","exits":"11935"}],"20161022":[{"entries":"16688","exits":"11935"}],"20161029":[{"entries":"16688","exits":"11935"}],"20161105":[{"entries":"16688","exits":"11935"}],"20161112":[{"entries":"16688","exits":"11935"}],"station_name":"독립문","line_num":"3","lat":"37.574571","lon":"126.957748","station_cd":"0316"},{"20161015":[{"entries":"74551","exits":"65458"}],"20161022":[{"entries":"74551","exits":"65458"}],"20161029":[{"entries":"74551","exits":"65458"}],"20161105":[{"entries":"74551","exits":"65458"}],"20161112":[{"entries":"74551","exits":"65458"}],"station_name":"경복궁","line_num":"3","lat":"37.575762","lon":"126.973530","station_cd":"0317"},{"20161015":[{"entries":"55533","exits":"45910"}],"20161022":[{"entries":"55533","exits":"45910"}],"20161029":[{"entries":"55533","exits":"45910"}],"20161105":[{"entries":"55533","exits":"45910"}],"20161112":[{"entries":"55533","exits":"45910"}],"station_name":"안국","line_num":"3","lat":"37.576477","lon":"126.985443","station_cd":"0318"},{"20161015":[{"entries":"8115","exits":"16835"}],"20161022":[{"entries":"8115","exits":"16835"}],"20161029":[{"entries":"8115","exits":"16835"}],"20161105":[{"entries":"8115","exits":"16835"}],"20161112":[{"entries":"8115","exits":"16835"}],"station_name":"종로3가","line_num":"3","lat":"37.571607","lon":"126.991806","station_cd":"0319"},{"20161015":[{"entries":"11302","exits":"18518"}],"20161022":[{"entries":"11302","exits":"18518"}],"20161029":[{"entries":"11302","exits":"18518"}],"20161105":[{"entries":"11302","exits":"18518"}],"20161112":[{"entries":"11302","exits":"18518"}],"station_name":"을지로3가","line_num":"3","lat":"37.566295","lon":"126.991910","station_cd":"0320"},{"20161015":[{"entries":"62644","exits":"62063"}],"20161022":[{"entries":"62644","exits":"62063"}],"20161029":[{"entries":"62644","exits":"62063"}],"20161105":[{"entries":"62644","exits":"62063"}],"20161112":[{"entries":"62644","exits":"62063"}],"station_name":"명동","line_num":"4","lat":"37.560989","lon":"126.986325","station_cd":"0424"},{"20161015":[{"entries":"44338","exits":"45337"}],"20161022":[{"entries":"44338","exits":"45337"}],"20161029":[{"entries":"44338","exits":"45337"}],"20161105":[{"entries":"44338","exits":"45337"}],"20161112":[{"entries":"44338","exits":"45337"}],"station_name":"회현","line_num":"4","lat":"37.558514","lon":"126.978246","station_cd":"0425"},{"20161015":[{"entries":"17030","exits":"31457"}],"20161022":[{"entries":"17030","exits":"31457"}],"20161029":[{"entries":"17030","exits":"31457"}],"20161105":[{"entries":"17030","exits":"31457"}],"20161112":[{"entries":"17030","exits":"31457"}],"station_name":"서울","line_num":"4","lat":"37.554648","lon":"126.972559","station_cd":"0426"},{"20161015":[{"entries":"11360","exits":"4154"}],"20161022":[{"entries":"11360","exits":"4154"}],"20161029":[{"entries":"11360","exits":"4154"}],"20161105":[{"entries":"11360","exits":"4154"}],"20161112":[{"entries":"11360","exits":"4154"}],"station_name":"충정로","line_num":"5","lat":"37.559973","lon":"126.963672","station_cd":"2532"},{"20161015":[{"entries":"43007","exits":"31744"}],"20161022":[{"entries":"43007","exits":"31744"}],"20161029":[{"entries":"43007","exits":"31744"}],"20161105":[{"entries":"43007","exits":"31744"}],"20161112":[{"entries":"43007","exits":"31744"}],"station_name":"서대문","line_num":"5","lat":"37.565773","lon":"126.966641","station_cd":"2533"},{"20161015":[{"entries":"103326","exits":"111271"}],"20161022":[{"entries":"103326","exits":"111271"}],"20161029":[{"entries":"103326","exits":"111271"}],"20161105":[{"entries":"103326","exits":"111271"}],"20161112":[{"entries":"103326","exits":"111271"}],"station_name":"광화문","line_num":"5","lat":"37.571026","lon":"126.976669","station_cd":"2534"},{"20161015":[{"entries":"26914","exits":"35723"}],"20161022":[{"entries":"26914","exits":"35723"}],"20161029":[{"entries":"26914","exits":"35723"}],"20161105":[{"entries":"26914","exits":"35723"}],"20161112":[{"entries":"26914","exits":"35723"}],"station_name":"종로3가","line_num":"5","lat":"37.571607","lon":"126.991806","station_cd":"2535"},{"20161015":[{"entries":"6118","exits":"6178"}],"20161022":[{"entries":"6118","exits":"6178"}],"20161029":[{"entries":"6118","exits":"6178"}],"20161105":[{"entries":"6118","exits":"6178"}],"20161112":[{"entries":"6118","exits":"6178"}],"station_name":"을지로4가","line_num":"5","lat":"37.566941","lon":"126.998079","station_cd":"2536"},{"20161015":[{"entries":489176,"exits":510254}],"20161022":[{"entries":504257,"exits":525022}],"20161029":[{"entries":571038,"exits":580856}],"20161105":[{"entries":656206,"exits":642284}],"20161112":[{"entries":1124358,"exits":1124219}],"station_name":"total","line_num":"","lat":"","lon":""}]
