{"line":"A","stations":[{"station_cd":"1291","station_name":"서울","station_fr_code":"A01","lat":"37.554648","lon":"126.972559"},{"station_cd":"1292","station_name":"공덕","station_fr_code":"A02","lat":"37.544018","lon":"126.951592"},{"station_cd":"1293","station_name":"홍대입구","station_fr_code":"A03","lat":"37.557192","lon":"126.925381"},{"station_cd":"1294","station_name":"디지털미디어시티","station_fr_code":"A04","lat":"37.576646","lon":"126.900984"},{"station_cd":"4207","station_name":"김포공항","station_fr_code":"A05","lat":"37.562434","lon":"126.801058"},{"station_cd":"4208","station_name":"계양","station_fr_code":"A06","lat":"37.571462","lon":"126.735637"},{"station_cd":"4209","station_name":"검암","station_fr_code":"A07","lat":"37.569104","lon":"126.673728"},{"station_cd":"4210","station_name":"청라국제도시","station_fr_code":"A071","lat":"37.555878","lon":"126.625327"},{"station_cd":"4217","station_name":"영종","station_fr_code":"A072","lat":"37.511466","lon":"126.523700"},{"station_cd":"4211","station_name":"운서","station_fr_code":"A08","lat":"37.492904","lon":"126.493790"},{"station_cd":"4212","station_name":"공항화물청사","station_fr_code":"A09","lat":"37.458366","lon":"126.476241"},{"station_cd":"4213","station_name":"인천국제공항","station_fr_code":"A10","lat":"37.447464","lon":"126.452508"}]}
