{"type":"FeatureCollection","features":[{"type":"Feature","geometry":{"type":"Point","coordinates":[126.972559,37.554648]},"properties":{"station_cd":"1291","station_name":"서울","station_fr_code":"A01"}},{"type":"Feature","geometry":{"type":"Point","coordinates":[126.951592,37.544018]},"properties":{"station_cd":"1292","station_name":"공덕","station_fr_code":"A02"}},{"type":"Feature","geometry":{"type":"Point","coordinates":[126.925381,37.557192]},"properties":{"station_cd":"1293","station_name":"홍대입구","station_fr_code":"A03"}},{"type":"Feature","geometry":{"type":"Point","coordinates":[126.900984,37.576646]},"properties":{"station_cd":"1294","station_name":"디지털미디어시티","station_fr_code":"A04"}},{"type":"Feature","geometry":{"type":"Point","coordinates":[126.801058,37.562434]},"properties":{"station_cd":"4207","station_name":"김포공항","station_fr_code":"A05"}},{"type":"Feature","geometry":{"type":"Point","coordinates":[126.735637,37.571462]},"properties":{"station_cd":"4208","station_name":"계양","station_fr_code":"A06"}},{"type":"Feature","geometry":{"type":"Point","coordinates":[126.673728,37.569104]},"properties":{"station_cd":"4209","station_name":"검암","station_fr_code":"A07"}},{"type":"Feature","geometry":{"type":"Point","coordinates":[126.625327,37.555878]},"properties":{"station_cd":"4210","station_name":"청라국제도시","station_fr_code":"A071"}},{"type":"Feature","geometry":{"type":"Point","coordinates":[126.5237,37.511466]},"properties":{"station_cd":"4217","station_name":"영종","station_fr_code":"A072"}},{"type":"Feature","geometry":{"type":"Point","coordinates":[126.49379,37.492904]},"properties":{"station_cd":"4211","station_name":"운서","station_fr_code":"A08"}},{"type":"Feature","geometry":{"type":"Point","coordinates":[126.476241,37.458366]},"properties":{"station_cd":"4212","station_name":"공항화물청사","station_fr_code":"A09"}},{"type":"Feature","geometry":{"type":"Point","coordinates":[126.452508,37.447464]},"properties":{"station_cd":"4213","station_name":"인천국제공항","station_fr_code":"A10"}}],"line":"A"}
