{"line":"SU","stations":[{"station_cd":"1877","station_name":"오이도","station_fr_code":"K250","lat":"37.362357","lon":"126.738714"},{"station_cd":"1878","station_name":"달월","station_fr_code":"K251","lat":"37.379681","lon":"126.745177"},{"station_cd":"1879","station_name":"월곶","station_fr_code":"K252","lat":"37.391769","lon":"126.742699"},{"station_cd":"1880","station_name":"소래포구","station_fr_code":"K253","lat":"37.400950","lon":"126.733522"},{"station_cd":"1881","station_name":"인천논현","station_fr_code":"K254","lat":"37.400614","lon":"126.722478"},{"station_cd":"1882","station_name":"호구포","station_fr_code":"K255","lat":"37.401637","lon":"126.708627"},{"station_cd":"1883","station_name":"남동인더스파크","station_fr_code":"K256","lat":"37.407722","lon":"126.695216"},{"station_cd":"1884","station_name":"원인재","station_fr_code":"K257","lat":"37.412603","lon":"126.687389"},{"station_cd":"1885","station_name":"연수","station_fr_code":"K258","lat":"37.417804","lon":"126.678940"},{"station_cd":"1886","station_name":"송도","station_fr_code":"K259","lat":"37.428514","lon":"126.657772"},{"station_cd":"1888","station_name":"인하대","station_fr_code":"K261","lat":"37.448493","lon":"126.649619"},{"station_cd":"1889","station_name":"숭의","station_fr_code":"K262","lat":"37.460789","lon":"126.638297"},{"station_cd":"1890","station_name":"신포","station_fr_code":"K263","lat":"37.468740","lon":"126.623853"},{"station_cd":"1891","station_name":"인천","station_fr_code":"K264","lat":"37.476691","lon":"126.616936"}]}
